{
  "locations": [
    {
      "name": "Yellowstone National Park",
      "locationType": "National Park",
      "address": "Yellowstone National Park",
      "city": "Yellowstone",
      "state": "WY",
      "zipCode": "82190",
      "latitude": 44.427963,
      "longitude": -110.588455,
      "startDate": "2024-06-15",
      "endDate": "2024-06-18",
      "rating": 5,
      "comments": "Amazing geysers and wildlife. Old Faithful was incredible!",
      "tags": ["national-park", "camping", "hiking"]
    },
    {
      "name": "Grand Canyon National Park",
      "locationType": "National Park",
      "address": "Grand Canyon",
      "city": "Grand Canyon",
      "state": "AZ",
      "zipCode": "86023",
      "latitude": 36.1069,
      "longitude": -112.1129,
      "startDate": "2024-07-01",
      "endDate": "2024-07-03",
      "rating": 5,
      "comments": "Stunning views from the South Rim. Hiked part of Bright Angel Trail.",
      "tags": ["national-park", "hiking"]
    },
    {
      "name": "Pine Grove RV Park",
      "locationType": "RV Park",
      "address": "123 Pine St",
      "city": "Missoula",
      "state": "MT",
      "zipCode": "59801",
      "latitude": 46.8721,
      "longitude": -113.9940,
      "startDate": "2024-06-19",
      "endDate": "2024-06-20",
      "rating": 4,
      "comments": "Clean facilities and friendly staff. Great location near downtown.",
      "tags": ["rv-park"]
    },
    {
      "name": "Zion National Park",
      "locationType": "National Park",
      "address": "Zion National Park",
      "city": "Springdale",
      "state": "UT",
      "zipCode": "84767",
      "latitude": 37.2982,
      "longitude": -113.0263,
      "startDate": "2024-08-10",
      "endDate": "2024-08-12",
      "rating": 5,
      "comments": "Angels Landing hike was breathtaking! Beautiful red rock formations.",
      "tags": ["national-park", "hiking"]
    },
    {
      "name": "Yosemite National Park",
      "locationType": "National Park",
      "address": "Yosemite National Park",
      "city": "Yosemite Valley",
      "state": "CA",
      "zipCode": "95389",
      "latitude": 37.8651,
      "longitude": -119.5383,
      "startDate": "2024-09-05",
      "endDate": "2024-09-08",
      "rating": 5,
      "comments": "Incredible waterfalls and granite cliffs. Half Dome is impressive.",
      "tags": ["national-park", "hiking", "camping"]
    }
  ]
}
